$PCLMP2,1.50,2.09,38.42,982.14,23.00*47
$WIMWV,335,R,0.9,M,A*32
$GPGGA,212602.000,3510.9052,N,09726.3623,W,2,9,0.95,345.8,M,-25.1,M,0000,0000*6B
$GPRMC,212602.000,A,3510.9052,N,09726.3623,W,0.01,0.00,180516,,,D*71
$PCLMP2,1.48,1.61,39.06,982.06,23.00*41
$WIMWV,299,R,0.7,M,A*3B
$GPGGA,212607.000,3510.9052,N,09726.3624,W,2,9,0.98,345.8,M,-25.1,M,0000,0000*64
$GPRMC,212607.000,A,3510.9052,N,09726.3624,W,0.08,0.00,180516,,,D*7A
$PCLMP2,1.06,2.36,38.99,982.11,23.00*4B
$WIXDR,C,22.0,C,2,U,13.9,N,0,U,14.2,V,1,U,3.585,V,2*7D
$WIMWV,344,R,1.5,M,A*39
$GPGGA,212612.000,3510.9052,N,09726.3624,W,2,9,0.98,345.8,M,-25.1,M,0000,0000*60
$GPRMC,212612.000,A,3510.9052,N,09726.3624,W,0.03,0.00,180516,,,D*75
$PCLMP2,1.52,2.58,38.93,982.09,23.00*41
$WIMWV,012,R,1.6,M,A*3A
$GPGGA,212617.000,3510.9052,N,09726.3624,W,2,9,0.98,345.8,M,-25.1,M,0000,0000*65
$GPRMC,212617.000,A,3510.9052,N,09726.3624,W,0.07,0.00,180516,,,D*74
$PCLMP2,1.74,2.11,37.91,982.14,23.00*49
$WIMWV,314,R,1.1,M,A*38
$GPGGA,212622.000,3510.9052,N,09726.3624,W,2,9,0.95,345.8,M,-25.1,M,0000,0000*6E
$GPRMC,212622.000,A,3510.9052,N,09726.3624,W,0.04,0.00,180516,,,D*71
$PCLMP2,1.26,1.84,39.06,982.12,23.00*47
$WIXDR,C,22.1,C,2,U,13.9,N,0,U,14.2,V,1,U,3.585,V,2*7C
$WIMWV,303,R,0.8,M,A*36
$GPGGA,212627.000,3510.9052,N,09726.3624,W,2,9,0.95,345.8,M,-25.1,M,0000,0000*6B
$GPRMC,212627.000,A,3510.9052,N,09726.3624,W,0.03,0.00,180516,,,D*73
$PCLMP2,2.58,1.60,38.11,982.16,23.00*44
$WIMWV,029,R,0.4,M,A*31
$GPGGA,212632.000,3510.9052,N,09726.3624,W,2,8,1.06,345.8,M,-25.1,M,0000,0000*65
$GPRMC,212632.000,A,3510.9052,N,09726.3624,W,0.04,0.00,180516,,,D*70
$PCLMP2,2.20,1.19,38.52,982.12,23.00*46
$WIMWV,060,R,0.4,M,A*3C
$GPGGA,212637.000,3510.9052,N,09726.3624,W,2,8,1.06,345.8,M,-25.1,M,0000,0000*60
$GPRMC,212637.000,A,3510.9052,N,09726.3624,W,0.06,0.00,180516,,,D*77
$PCLMP2,1.49,1.63,38.20,982.15,23.00*45
$WIXDR,C,22.2,C,2,U,13.9,N,0,U,14.2,V,1,U,3.585,V,2*7F
$WIMWV,075,R,1.2,M,A*3F
$GPGGA,212642.000,3510.9052,N,09726.3624,W,2,9,0.95,345.8,M,-25.1,M,0000,0000*68
$GPRMC,212642.000,A,3510.9052,N,09726.3624,W,0.01,0.00,180516,,,D*72
$PCLMP2,1.04,2.09,38.45,982.09,23.00*4D
$WIMWV,071,R,1.0,M,A*39
$GPGGA,212647.000,3510.9052,N,09726.3624,W,2,9,0.98,345.8,M,-25.1,M,0000,0000*60
$GPRMC,212647.000,A,3510.9052,N,09726.3624,W,0.04,0.00,180516,,,D*72
$PCLMP2,1.27,1.64,38.23,982.09,23.00*44
$WIXDR,C,17.4,C,0,H,57.6,P,0,P,979.5,H,0*4A
$WIMWV,106,R,0.4,M,A*3D
$GPGGA,212652.000,3510.9052,N,09726.3624,W,2,9,0.94,345.7,M,-25.1,M,0000,0000*67
$GPRMC,212652.000,A,3510.9052,N,09726.3624,W,0.06,0.00,180516,,,D*74
$PCLMP2,1.27,2.09,38.61,982.10,23.00*42
$WIXDR,C,22.2,C,2,U,13.9,N,0,U,14.2,V,1,U,3.585,V,2*7F
$WIMWV,064,R,1.8,M,A*35
$GPGGA,212657.000,3510.9053,N,09726.3624,W,2,9,0.98,345.7,M,-25.1,M,0000,0000*6F
$GPRMC,212657.000,A,3510.9053,N,09726.3624,W,0.06,0.00,180516,,,D*70
$PCLMP2,2.15,1.39,38.58,982.10,23.00*4A
$WIMWV,099,R,1.2,M,A*3D
$GPGGA,212702.000,3510.9053,N,09726.3624,W,2,9,0.98,345.7,M,-25.1,M,0000,0000*6E
$GPRMC,212702.000,A,3510.9053,N,09726.3624,W,0.05,0.00,180516,,,D*72
$PCLMP2,1.29,2.35,38.87,982.14,23.00*4F
$WIMWV,315,R,0.8,M,A*31
$GPGGA,212707.000,3510.9053,N,09726.3624,W,2,9,0.98,345.7,M,-25.1,M,0000,0000*6B
$GPRMC,212707.000,A,3510.9053,N,09726.3624,W,0.03,0.00,180516,,,D*71
$WIXDR,C,22.4,C,2,U,13.9,N,0,U,14.2,V,1,U,3.585,V,2*79
$PCLMP2,2.36,0.04,39.32,982.11,23.00*48
$WIMWV,333,R,0.3,M,A*3E
$GPGGA,212712.000,3510.9053,N,09726.3624,W,2,9,0.98,345.7,M,-25.1,M,0000,0000*6F
$GPRMC,212712.000,A,3510.9053,N,09726.3624,W,0.05,0.00,180516,,,D*73
$PCLMP2,1.26,1.40,39.00,982.09,23.00*43
$WIMWV,141,R,0.7,M,A*3D
$GPGGA,212717.000,3510.9053,N,09726.3624,W,2,9,0.98,345.7,M,-25.1,M,0000,0000*6A
$GPRMC,212717.000,A,3510.9053,N,09726.3624,W,0.05,0.00,180516,,,D*76
$PCLMP2,1.71,1.63,38.61,982.14,23.00*4A
$WIMWV,175,R,0.6,M,A*3B
$GPGGA,212722.000,3510.9053,N,09726.3624,W,2,9,0.98,345.7,M,-25.1,M,0000,0000*6C
$GPRMC,212722.000,A,3510.9053,N,09726.3624,W,0.04,0.00,180516,,,D*71
$PCLMP2,1.73,1.87,39.13,982.12,23.00*40
$WIXDR,C,22.6,C,2,U,13.9,N,0,U,14.2,V,1,U,3.585,V,2*7B
$WIMWV,169,R,0.5,M,A*35
$GPGGA,212727.000,3510.9053,N,09726.3624,W,2,9,0.98,345.7,M,-25.1,M,0000,0000*69
$GPRMC,212727.000,A,3510.9053,N,09726.3624,W,0.07,0.00,180516,,,D*77
$PCLMP2,1.49,1.40,39.58,982.12,23.00*4D
$WIMWV,326,R,0.8,M,A*31
$GPGGA,212732.000,3510.9053,N,09726.3624,W,2,9,0.98,345.7,M,-25.1,M,0000,0000*6D
$GPRMC,212732.000,A,3510.9053,N,09726.3624,W,0.04,0.00,180516,,,D*70
$PCLMP2,1.27,1.87,39.13,982.08,23.00*4A
$WIMWV,018,R,0.8,M,A*3F
$GPGGA,212737.000,3510.9053,N,09726.3624,W,2,9,0.98,345.7,M,-25.1,M,0000,0000*68
$GPRMC,212737.000,A,3510.9053,N,09726.3624,W,0.08,0.00,180516,,,D*79
$PCLMP2,1.28,2.10,39.26,982.09,23.00*4F
$WIXDR,C,22.7,C,2,U,13.9,N,0,U,14.2,V,1,U,3.585,V,2*7A
$WIMWV,005,R,0.6,M,A*3D
$GPGGA,212742.000,3510.9053,N,09726.3624,W,2,9,0.98,345.7,M,-25.1,M,0000,0000*6A
$GPRMC,212742.000,A,3510.9053,N,09726.3624,W,0.16,0.00,180516,,,D*74
$PCLMP2,1.94,1.17,38.52,982.14,23.00*42
$WIMWV,035,R,1.0,M,A*39
$GPGGA,212747.000,3510.9053,N,09726.3624,W,2,9,0.98,345.6,M,-25.1,M,0000,0000*6E
$GPRMC,212747.000,A,3510.9053,N,09726.3624,W,0.07,0.00,180516,,,D*71
$PCLMP2,1.50,1.64,39.00,982.13,23.00*4F
$WIXDR,C,17.4,C,0,H,56.9,P,0,P,979.5,H,0*44
$WIMWV,014,R,1.7,M,A*3D
$GPGGA,212752.000,3510.9053,N,09726.3624,W,2,9,0.98,345.6,M,-25.1,M,0000,0000*6A
$GPRMC,212752.000,A,3510.9053,N,09726.3624,W,0.05,0.00,180516,,,D*77
$WIXDR,C,22.6,C,2,U,13.9,N,0,U,14.2,V,1,U,3.585,V,2*7B
$PCLMP2,1.28,2.11,38.77,982.17,23.00*44
$WIMWV,307,R,1.0,M,A*3B
$GPGGA,212757.000,3510.9054,N,09726.3624,W,2,9,0.98,345.6,M,-25.1,M,0000,0000*68
$GPRMC,212757.000,A,3510.9054,N,09726.3624,W,0.20,0.00,180516,,,D*72
$PCLMP2,1.27,2.09,37.79,982.11,23.00*45
$WIMWV,302,R,1.1,M,A*3F
$GPGGA,212802.000,3510.9054,N,09726.3624,W,2,9,0.98,345.6,M,-25.1,M,0000,0000*67
$GPRMC,212802.000,A,3510.9054,N,09726.3624,W,0.10,0.00,180516,,,D*7E
$PCLMP2,1.49,1.63,38.33,982.08,23.00*4B
$WIMWV,001,R,0.7,M,A*38
$GPGGA,212807.000,3510.9054,N,09726.3624,W,2,9,0.98,345.6,M,-25.1,M,0000,0000*62
$GPRMC,212807.000,A,3510.9054,N,09726.3624,W,0.02,0.00,180516,,,D*78
$PCLMP2,2.30,-0.39,38.61,982.07,23.00*6D
$WIXDR,C,22.7,C,2,U,13.9,N,0,U,14.2,V,1,U,3.585,V,2*7A
$WIMWV,010,R,1.0,M,A*3E
$GPGGA,212812.000,3510.9054,N,09726.3624,W,2,9,0.98,345.6,M,-25.1,M,0000,0000*66
$GPRMC,212812.000,A,3510.9054,N,09726.3624,W,0.12,0.00,180516,,,D*7D
$PCLMP2,1.71,1.39,38.74,982.05,23.00*41
$WIMWV,318,R,1.6,M,A*33
$GPGGA,212817.000,3510.9054,N,09726.3624,W,2,9,0.98,345.6,M,-25.1,M,0000,0000*63
$GPRMC,212817.000,A,3510.9054,N,09726.3624,W,0.07,0.00,180516,,,D*7C
$PCLMP2,1.26,2.08,39.68,982.05,23.00*4E
$WIMWV,323,R,0.7,M,A*3B
$GPGGA,212822.000,3510.9054,N,09726.3624,W,2,9,0.98,345.6,M,-25.1,M,0000,0000*65
$GPRMC,212822.000,A,3510.9054,N,09726.3624,W,0.07,0.00,180516,,,D*7A
$WIXDR,C,22.7,C,2,U,13.9,N,0,U,14.2,V,1,U,3.585,V,2*7A
$PCLMP2,1.29,2.12,38.74,982.05,23.00*46
$WIMWV,060,R,0.5,M,A*3D
$GPGGA,212827.000,3510.9054,N,09726.3624,W,2,9,0.98,345.6,M,-25.1,M,0000,0000*60
$GPRMC,212827.000,A,3510.9054,N,09726.3624,W,0.09,0.00,180516,,,D*71
$PCLMP2,1.28,2.10,38.29,982.04,23.00*4C
